{"type": "FeatureCollection", "features": [{"type": "Feature", "id": 1, "geometry": {"type": "Point", "coordinates": [-122.5734256, 48.4806819]}, "properties": {"FID": 1, "Company": "ROYAL DUTCH/SHELL GROUP", "Name": "Shell Oil Products US", "Terminal_S": "Oil Refinery", "City": "ANACORTES", "State": "Washington", "Country": "US", "Zip": "98221", "Longitude": -122.573426, "Latitude": 48.480682, "Cty_Parish": ".", "Storage": ".", "SendOut": "145000", "Markets": "West Coast", "Availabili": ".", "Type": ".", "Imp_Exp": ".", "Status": ".", "FERC_MARAD": ".", "Address": "8505 South Texas Road"}}, {"type": "Feature", "id": 2, "geometry": {"type": "Point", "coordinates": [-122.5734256, 48.4806819]}, "properties": {"FID": 2, "Company": "TESORO CORP", "Name": "Tesoro West Coast", "Terminal_S": "Oil Refinery", "City": "ANACORTES", "State": "Washington", "Country": "US", "Zip": "98221", "Longitude": -122.573426, "Latitude": 48.480682, "Cty_Parish": ".", "Storage": ".", "SendOut": "120000", "Markets": "West Coast", "Availabili": ".", "Type": ".", "Imp_Exp": ".", "Status": ".", "FERC_MARAD": ".", "Address": "8505 South Texas Road"}}, {"type": "Feature", "id": 3, "geometry": {"type": "Point", "coordinates": [-97.108363, 34.201717]}, "properties": {"FID": 3, "Company": "VALERO ENERGY CORP", "Name": "VALERO REFINING CO OKLAHOMA", "Terminal_S": "Oil Refinery", "City": "ARDMORE", "State": "Oklahoma", "Country": "US", "Zip": "73401", "Longitude": -97.108363, "Latitude": 34.201717, "Cty_Parish": ".", "Storage": ".", "SendOut": "85000", "Markets": "Oklahoma-Kansas-Missouri", "Availabili": ".", "Type": ".", "Imp_Exp": ".", "Status": ".", "FERC_MARAD": ".", "Address": "1 Valero Way"}}, {"type": "Feature", "id": 4, "geometry": {"type": "Point", "coordinates": [-104.402484, 32.841868]}, "properties": {"FID": 4, "Company": "HOLLYFRONTIER CORP", "Name": "NAVAJO REFINING CO LLC", "Terminal_S": "Oil Refinery", "City": "ARTESIA", "State": "New Mexico", "Country": "US", "Zip": "88210", "Longitude": -104.402484, "Latitude": 32.841868, "Cty_Parish": ".", "Storage": ".", "SendOut": "105000", "Markets": "New Mexico", "Availabili": ".", "Type": ".", "Imp_Exp": ".", "Status": ".", "FERC_MARAD": ".", "Address": "501 East Main"}}, {"type": "Feature", "id": 5, "geometry": {"type": "Point", "coordinates": [-87.4380112999999, 31.1871434]}, "properties": {"FID": 5, "Company": "GOODWAY REFINING LLC", "Name": "GOODWAY REFINING LLC", "Terminal_S": "Oil Refinery", "City": "ATMORE", "State": "Alabama", "Country": "US", "Zip": "36502", "Longitude": -87.438011, "Latitude": 31.187143, "Cty_Parish": ".", "Storage": ".", "SendOut": "4100", "Markets": "North Louisiana-Arkansas", "Availabili": ".", "Type": ".", "Imp_Exp": ".", "Status": ".", "FERC_MARAD": ".", "Address": "4745 Ross Road"}}, {"type": "Feature", "id": 6, "geometry": {"type": "Point", "coordinates": [-118.9183529, 35.2962336]}, "properties": {"FID": 6, "Company": "KERN OIL & REFINING CO", "Name": "KERN OIL & REFINING CO", "Terminal_S": "Oil Refinery", "City": "BAKERSFIELD", "State": "California", "Country": "US", "Zip": "93307", "Longitude": -118.918353, "Latitude": 35.296234, "Cty_Parish": ".", "Storage": ".", "SendOut": "26000", "Markets": "West Coast", "Availabili": ".", "Type": ".", "Imp_Exp": ".", "Status": ".", "FERC_MARAD": ".", "Address": "7724 East Panama Lane"}}, {"type": "Feature", "id": 7, "geometry": {"type": "Point", "coordinates": [-118.9183529, 35.2962336]}, "properties": {"FID": 7, "Company": "SAN JOAQUIN REFINING CO INC", "Name": "SAN JOAQUIN REFINING CO INC", "Terminal_S": "Oil Refinery", "City": "BAKERSFIELD", "State": "California", "Country": "US", "Zip": "93307", "Longitude": -118.918353, "Latitude": 35.296234, "Cty_Parish": ".", "Storage": ".", "SendOut": "15000", "Markets": "West Coast", "Availabili": ".", "Type": ".", "Imp_Exp": ".", "Status": ".", "FERC_MARAD": ".", "Address": "7724 East Panama Lane"}}, {"type": "Feature", "id": 8, "geometry": {"type": "Point", "coordinates": [-91.1685881999999, 30.4768604]}, "properties": {"FID": 8, "Company": "EXXON MOBIL CORP", "Name": "EXXONMOBIL REFINING & SUPPLY CO", "Terminal_S": "Oil Refinery", "City": "BATON ROUGE", "State": "Louisiana", "Country": "US", "Zip": "70805", "Longitude": -91.168588, "Latitude": 30.47686, "Cty_Parish": ".", "Storage": ".", "SendOut": "502500", "Markets": "Louisiana Gulf Coast", "Availabili": ".", "Type": ".", "Imp_Exp": ".", "Status": ".", "FERC_MARAD": ".", "Address": "4045 Scenic Highway"}}, {"type": "Feature", "id": 9, "geometry": {"type": "Point", "coordinates": [-95.0249248999999, 29.7403351]}, "properties": {"FID": 9, "Company": "EXXON MOBIL CORP", "Name": "EXXONMOBIL REFINING & SUPPLY CO", "Terminal_S": "Oil Refinery", "City": "BAYTOWN", "State": "Texas", "Country": "US", "Zip": "77520", "Longitude": -95.024925, "Latitude": 29.740335, "Cty_Parish": ".", "Storage": ".", "SendOut": "560500", "Markets": "Texas Gulf Coast", "Availabili": ".", "Type": ".", "Imp_Exp": ".", "Status": ".", "FERC_MARAD": ".", "Address": "5000 Bayway Drive"}}, {"type": "Feature", "id": 10, "geometry": {"type": "Point", "coordinates": [-94.0769636999999, 30.0646861999999]}, "properties": {"FID": 10, "Company": "EXXON MOBIL CORP", "Name": "EXXONMOBIL REFINING & SUPPLY CO", "Terminal_S": "Oil Refinery", "City": "BEAUMONT", "State": "Texas", "Country": "US", "Zip": "77701", "Longitude": -94.076964, "Latitude": 30.064686, "Cty_Parish": ".", "Storage": ".", "SendOut": "344500", "Markets": "Texas Gulf Coast", "Availabili": ".", "Type": ".", "Imp_Exp": ".", "Status": ".", "FERC_MARAD": ".", "Address": "1795 Burt Street"}}, {"type": "Feature", "id": 11, "geometry": {"type": "Point", "coordinates": [-89.9812018999999, 29.6820122]}, "properties": {"FID": 11, "Company": "CONOCOPHILLIPS", "Name": "CONOCOPHILLIPS COMPANY", "Terminal_S": "Oil Refinery", "City": "BELLE CHASSE", "State": "Louisiana", "Country": "US", "Zip": "70037", "Longitude": -89.981202, "Latitude": 29.682012, "Cty_Parish": ".", "Storage": ".", "SendOut": "247000", "Markets": "Louisiana Gulf Coast", "Availabili": ".", "Type": ".", "Imp_Exp": ".", "Status": ".", "FERC_MARAD": ".", "Address": "15551 South Highway 23"}}, {"type": "Feature", "id": 12, "geometry": {"type": "Point", "coordinates": [-122.145847399999, 38.0729861]}, "properties": {"FID": 12, "Company": "VALERO ENERGY CORP", "Name": "VALERO REFINING CO CALIFORNIA", "Terminal_S": "Oil Refinery", "City": "BENICIA", "State": "California", "Country": "US", "Zip": "94510", "Longitude": -122.145847, "Latitude": 38.072986, "Cty_Parish": ".", "Storage": ".", "SendOut": "132000", "Markets": "West Coast", "Availabili": ".", "Type": ".", "Imp_Exp": ".", "Status": ".", "FERC_MARAD": ".", "Address": "3400 East 2nd Street"}}, {"type": "Feature", "id": 13, "geometry": {"type": "Point", "coordinates": [-101.421452499999, 32.2684331]}, "properties": {"FID": 13, "Company": "ALON ISRAEL OIL COMPANY LTD", "Name": "ALON USA ENERGY INC", "Terminal_S": "Oil Refinery", "City": "BIG SPRING", "State": "Texas", "Country": "US", "Zip": "79720", "Longitude": -101.421452, "Latitude": 32.268433, "Cty_Parish": ".", "Storage": ".", "SendOut": "67000", "Markets": "Texas Inland", "Availabili": ".", "Type": ".", "Imp_Exp": ".", "Status": ".", "FERC_MARAD": ".", "Address": "200 Refinery Road"}}, {"type": "Feature", "id": 14, "geometry": {"type": "Point", "coordinates": [-108.491320999999, 45.779638]}, "properties": {"FID": 14, "Company": "CONOCOPHILLIPS", "Name": "CONOCOPHILLIPS COMPANY", "Terminal_S": "Oil Refinery", "City": "BILLINGS", "State": "Montana", "Country": "US", "Zip": "59101", "Longitude": -108.491321, "Latitude": 45.779638, "Cty_Parish": ".", "Storage": ".", "SendOut": "58000", "Markets": "Rocky Mountain", "Availabili": ".", "Type": ".", "Imp_Exp": ".", "Status": ".", "FERC_MARAD": ".", "Address": "401 South 23rd Street"}}, {"type": "Feature", "id": 15, "geometry": {"type": "Point", "coordinates": [-108.4335338, 45.8111805]}, "properties": {"FID": 15, "Company": "EXXON MOBIL CORP", "Name": "EXXONMOBIL REFINING & SUPPLY CO", "Terminal_S": "Oil Refinery", "City": "BILLINGS", "State": "Montana", "Country": "US", "Zip": "59101", "Longitude": -108.433534, "Latitude": 45.81118, "Cty_Parish": ".", "Storage": ".", "SendOut": "60000", "Markets": "Rocky Mountain", "Availabili": ".", "Type": ".", "Imp_Exp": ".", "Status": ".", "FERC_MARAD": ".", "Address": "700 Exxonmobil Road"}}, {"type": "Feature", "id": 16, "geometry": {"type": "Point", "coordinates": [-101.355312099999, 35.6946078]}, "properties": {"FID": 16, "Company": "WRB REFINING LP", "Name": "WRB REFINING LP", "Terminal_S": "Oil Refinery", "City": "BORGER", "State": "Texas", "Country": "US", "Zip": "79007", "Longitude": -101.355312, "Latitude": 35.694608, "Cty_Parish": ".", "Storage": ".", "SendOut": "146000", "Markets": "Texas Inland", "Availabili": ".", "Type": ".", "Imp_Exp": ".", "Status": ".", "FERC_MARAD": ".", "Address": "Philips Avenue"}}, {"type": "Feature", "id": 17, "geometry": {"type": "Point", "coordinates": [-78.6282519999999, 41.966714]}, "properties": {"FID": 17, "Company": "AMERICAN REFINING GROUP INC", "Name": "AMERICAN REFINING GROUP INC", "Terminal_S": "Oil Refinery", "City": "BRADFORD", "State": "Pennsylvania", "Country": "US", "Zip": "16701", "Longitude": -78.628252, "Latitude": 41.966714, "Cty_Parish": ".", "Storage": ".", "SendOut": "10000", "Markets": "Appalachian No. 1", "Availabili": ".", "Type": ".", "Imp_Exp": ".", "Status": ".", "FERC_MARAD": ".", "Address": "77 North Kendall Avenue"}}, {"type": "Feature", "id": 18, "geometry": {"type": "Point", "coordinates": [-81.4135579999999, 40.775075]}, "properties": {"FID": 18, "Company": "MARATHON PETROLEUM CORP", "Name": "MARATHON PETROLEUM CO LLC", "Terminal_S": "Oil Refinery", "City": "CANTON", "State": "Ohio", "Country": "US", "Zip": "44706", "Longitude": -81.413558, "Latitude": 40.775075, "Cty_Parish": ".", "Storage": ".", "SendOut": "78000", "Markets": "Indiana-Illinois-Kentucky", "Availabili": ".", "Type": ".", "Imp_Exp": ".", "Status": ".", "FERC_MARAD": ".", "Address": "2408 Gambrinus Avenue Southwest"}}, {"type": "Feature", "id": 19, "geometry": {"type": "Point", "coordinates": [-82.5995011, 38.349074]}, "properties": {"FID": 19, "Company": "MARATHON PETROLEUM CORP", "Name": "MARATHON PETROLEUM CO LLC", "Terminal_S": "Oil Refinery", "City": "CATLETTSBURG", "State": "Kentucky", "Country": "US", "Zip": "41129", "Longitude": -82.599501, "Latitude": 38.349074, "Cty_Parish": ".", "Storage": ".", "SendOut": "233000", "Markets": "Indiana-Illinois-Kentucky", "Availabili": ".", "Type": ".", "Imp_Exp": ".", "Status": ".", "FERC_MARAD": ".", "Address": "11631 Old US Highway 23"}}, {"type": "Feature", "id": 20, "geometry": {"type": "Point", "coordinates": [-89.9683577, 29.9376384999999]}, "properties": {"FID": 20, "Company": "CHALMETTE REFINING LLC", "Name": "Chalmette Refining LLC", "Terminal_S": "Oil Refinery", "City": "CHALMETTE", "State": "Louisiana", "Country": "US", "Zip": "70043", "Longitude": -89.968358, "Latitude": 29.937638, "Cty_Parish": ".", "Storage": ".", "SendOut": "192500", "Markets": "Louisiana Gulf Coast", "Availabili": ".", "Type": ".", "Imp_Exp": ".", "Status": ".", "FERC_MARAD": ".", "Address": "500 West Saint Bernard Highway"}}, {"type": "Feature", "id": 21, "geometry": {"type": "Point", "coordinates": [-104.7966271, 41.1253795]}, "properties": {"FID": 21, "Company": "HOLLYFRONTIER CORP", "Name": "FRONTIER REFINING INC", "Terminal_S": "Oil Refinery", "City": "CHEYENNE", "State": "Wyoming", "Country": "US", "Zip": "82007", "Longitude": -104.796627, "Latitude": 41.12538, "Cty_Parish": ".", "Storage": ".", "SendOut": "47000", "Markets": "Rocky Mountain", "Availabili": ".", "Type": ".", "Imp_Exp": ".", "Status": ".", "FERC_MARAD": ".", "Address": "300 Morrie Avenue"}}, {"type": "Feature", "id": 22, "geometry": {"type": "Point", "coordinates": [-95.6051545, 37.0443438]}, "properties": {"FID": 22, "Company": "CVR ENERGY", "Name": "COFFEYVILLE RESOURCES RFG & MKTG", "Terminal_S": "Oil Refinery", "City": "COFFEYVILLE", "State": "Kansas", "Country": "US", "Zip": "67337", "Longitude": -95.605154, "Latitude": 37.044344, "Cty_Parish": ".", "Storage": ".", "SendOut": "115700", "Markets": "Oklahoma-Kansas-Missouri", "Availabili": ".", "Type": ".", "Imp_Exp": ".", "Status": ".", "FERC_MARAD": ".", "Address": "400 North Linden Street"}}, {"type": "Feature", "id": 23, "geometry": {"type": "Point", "coordinates": [-104.946975899999, 39.8016835]}, "properties": {"FID": 23, "Company": "SUNCOR ENERGY INC", "Name": "SUNCOR ENERGY (USA) INC", "Terminal_S": "Oil Refinery", "City": "COMMERCE CITY EAST", "State": "Colorado", "Country": "US", "Zip": "80022", "Longitude": -104.946976, "Latitude": 39.801684, "Cty_Parish": ".", "Storage": ".", "SendOut": "36000", "Markets": "Rocky Mountain", "Availabili": ".", "Type": ".", "Imp_Exp": ".", "Status": ".", "FERC_MARAD": ".", "Address": "5801 Brighton Boulevard"}}, {"type": "Feature", "id": 24, "geometry": {"type": "Point", "coordinates": [-104.946975899999, 39.8016835]}, "properties": {"FID": 24, "Company": "SUNCOR ENERGY INC", "Name": "SUNCOR ENERGY (USA) INC", "Terminal_S": "Oil Refinery", "City": "COMMERCE CITY WEST", "State": "Colorado", "Country": "US", "Zip": "80022", "Longitude": -104.946976, "Latitude": 39.801684, "Cty_Parish": ".", "Storage": ".", "SendOut": "67000", "Markets": "Rocky Mountain", "Availabili": ".", "Type": ".", "Imp_Exp": ".", "Status": ".", "FERC_MARAD": ".", "Address": "5801 Brighton Boulevard"}}, {"type": "Feature", "id": 25, "geometry": {"type": "Point", "coordinates": [-90.9042987, 30.0856461]}, "properties": {"FID": 25, "Company": "MOTIVA ENTERPRISES LLC", "Name": "Motiva Enterprises LLC", "Terminal_S": "Oil Refinery", "City": "CONVENT", "State": "Louisiana", "Country": "US", "Zip": "70723", "Longitude": -90.904299, "Latitude": 30.085646, "Cty_Parish": ".", "Storage": ".", "SendOut": "235000", "Markets": "Louisiana Gulf Coast", "Availabili": ".", "Type": ".", "Imp_Exp": ".", "Status": ".", "FERC_MARAD": ".", "Address": "10700 Louisiana 44"}}, {"type": "Feature", "id": 26, "geometry": {"type": "Point", "coordinates": [-97.4436855, 27.8034262]}, "properties": {"FID": 26, "Company": "PDV AMERICA INC", "Name": "CITGO REFINING & CHEMICAL INC", "Terminal_S": "Oil Refinery", "City": "CORPUS CHRISTI", "State": "Texas", "Country": "US", "Zip": "78407", "Longitude": -97.443686, "Latitude": 27.803426, "Cty_Parish": ".", "Storage": ".", "SendOut": "163000", "Markets": "Texas Gulf Coast", "Availabili": ".", "Type": ".", "Imp_Exp": ".", "Status": ".", "FERC_MARAD": ".", "Address": "4806 Up River Road"}}, {"type": "Feature", "id": 27, "geometry": {"type": "Point", "coordinates": [-97.5203422999999, 27.8350803]}, "properties": {"FID": 27, "Company": "KOCH INDUSTRIES INC", "Name": "Flint Hills Resources LP", "Terminal_S": "Oil Refinery", "City": "CORPUS CHRISTI", "State": "Texas", "Country": "US", "Zip": "78409", "Longitude": -97.520342, "Latitude": 27.83508, "Cty_Parish": ".", "Storage": ".", "SendOut": "284172", "Markets": "Texas Gulf Coast", "Availabili": ".", "Type": ".", "Imp_Exp": ".", "Status": ".", "FERC_MARAD": ".", "Address": "2825 Suntide Road"}}, {"type": "Feature", "id": 28, "geometry": {"type": "Point", "coordinates": [-97.4462449999999, 27.807109]}, "properties": {"FID": 28, "Company": "VALERO ENERGY CORP", "Name": "VALERO REFINING CO TEXAS LP", "Terminal_S": "Oil Refinery", "City": "CORPUS CHRISTI", "State": "Texas", "Country": "US", "Zip": "78407", "Longitude": -97.446245, "Latitude": 27.807109, "Cty_Parish": ".", "Storage": ".", "SendOut": "200000", "Markets": "Texas Gulf Coast", "Availabili": ".", "Type": ".", "Imp_Exp": ".", "Status": ".", "FERC_MARAD": ".", "Address": "1147 Cantwell Lane"}}, {"type": "Feature", "id": 29, "geometry": {"type": "Point", "coordinates": [-93.4148377, 32.7973706]}, "properties": {"FID": 29, "Company": "CALUMET LUBRICANTS CO", "Name": "CALUMET LUBRICANTS CO LP", "Terminal_S": "Oil Refinery", "City": "COTTON VALLEY", "State": "Louisiana", "Country": "US", "Zip": "71018", "Longitude": -93.414838, "Latitude": 32.797371, "Cty_Parish": ".", "Storage": ".", "SendOut": "13020", "Markets": "North Louisiana-Arkansas", "Availabili": ".", "Type": ".", "Imp_Exp": ".", "Status": ".", "FERC_MARAD": ".", "Address": "1756 Old Highway 7"}}, {"type": "Feature", "id": 30, "geometry": {"type": "Point", "coordinates": [-95.1190996999999, 29.7111445]}, "properties": {"FID": 30, "Company": "DEER PARK REFINING LTD PTNRSHP", "Name": "DEER PARK REFINING LTD PARTNERSHIP", "Terminal_S": "Oil Refinery", "City": "DEER PARK", "State": "Texas", "Country": "US", "Zip": "77536", "Longitude": -95.1191, "Latitude": 29.711145, "Cty_Parish": ".", "Storage": ".", "SendOut": "327000", "Markets": "Texas Gulf Coast", "Availabili": ".", "Type": ".", "Imp_Exp": ".", "Status": ".", "FERC_MARAD": ".", "Address": "5900 Texas 225"}}, {"type": "Feature", "id": 31, "geometry": {"type": "Point", "coordinates": [-75.6153658, 39.5817608]}, "properties": {"FID": 31, "Company": "PBF ENERGY CO LLC", "Name": "DELAWARE CITY REFINING CO LLC", "Terminal_S": "Oil Refinery", "City": "DELAWARE CITY", "State": "Delaware", "Country": "US", "Zip": "19706", "Longitude": -75.615366, "Latitude": 39.581761, "Cty_Parish": ".", "Storage": ".", "SendOut": "182200", "Markets": "East Coast", "Availabili": ".", "Type": ".", "Imp_Exp": ".", "Status": ".", "FERC_MARAD": ".", "Address": "2000 Wrangle Hill Road"}}, {"type": "Feature", "id": 32, "geometry": {"type": "Point", "coordinates": [-83.1519190999999, 42.2806146]}, "properties": {"FID": 32, "Company": "MARATHON PETROLEUM CORP", "Name": "MARATHON PETROLEUM CO LLC", "Terminal_S": "Oil Refinery", "City": "DETROIT", "State": "Michigan", "Country": "US", "Zip": "48217", "Longitude": -83.151919, "Latitude": 42.280615, "Cty_Parish": ".", "Storage": ".", "SendOut": "106000", "Markets": "Indiana-Illinois-Kentucky", "Availabili": ".", "Type": ".", "Imp_Exp": ".", "Status": ".", "FERC_MARAD": ".", "Address": "1300 South Fort Street"}}, {"type": "Feature", "id": 33, "geometry": {"type": "Point", "coordinates": [-105.2645461, 43.0373635]}, "properties": {"FID": 33, "Company": "GARCO ENERGY LLC", "Name": "GARCO ENERGY LLC", "Terminal_S": "Oil Refinery", "City": "DOUGLAS", "State": "Wyoming", "Country": "US", "Zip": "82633", "Longitude": -105.264546, "Latitude": 43.037363, "Cty_Parish": ".", "Storage": ".", "SendOut": "3000", "Markets": "Rocky Mountain", "Availabili": ".", "Type": ".", "Imp_Exp": ".", "Status": ".", "FERC_MARAD": ".", "Address": "2070 Wyoming 59"}}, {"type": "Feature", "id": 34, "geometry": {"type": "Point", "coordinates": [-96.865517, 37.802007]}, "properties": {"FID": 34, "Company": "HOLLYFRONTIER CORP", "Name": "FRONTIER EL DORADO REFINING CO", "Terminal_S": "Oil Refinery", "City": "EL DORADO", "State": "Kansas", "Country": "US", "Zip": "67042", "Longitude": -96.865517, "Latitude": 37.802007, "Cty_Parish": ".", "Storage": ".", "SendOut": "138000", "Markets": "Oklahoma-Kansas-Missouri", "Availabili": ".", "Type": ".", "Imp_Exp": ".", "Status": ".", "FERC_MARAD": ".", "Address": "1401 Douglas Road"}}, {"type": "Feature", "id": 35, "geometry": {"type": "Point", "coordinates": [-92.6735966, 33.2015022]}, "properties": {"FID": 35, "Company": "DELEK GROUP LTD", "Name": "LION OIL CO", "Terminal_S": "Oil Refinery", "City": "EL DORADO", "State": "Arkansas", "Country": "US", "Zip": "71730", "Longitude": -92.673597, "Latitude": 33.201502, "Cty_Parish": ".", "Storage": ".", "SendOut": "83000", "Markets": "North Louisiana-Arkansas", "Availabili": ".", "Type": ".", "Imp_Exp": ".", "Status": ".", "FERC_MARAD": ".", "Address": "1000 Mchenry Street"}}, {"type": "Feature", "id": 36, "geometry": {"type": "Point", "coordinates": [-106.403872999999, 31.768998]}, "properties": {"FID": 36, "Company": "WESTERN REFINING INC.", "Name": "WESTERN REFINING COMPANY LP", "Terminal_S": "Oil Refinery", "City": "EL PASO", "State": "Texas", "Country": "US", "Zip": "79905", "Longitude": -106.403873, "Latitude": 31.768998, "Cty_Parish": ".", "Storage": ".", "SendOut": "122000", "Markets": "Texas Inland", "Availabili": ".", "Type": ".", "Imp_Exp": ".", "Status": ".", "FERC_MARAD": ".", "Address": "6500 Trowbridge Drive"}}, {"type": "Feature", "id": 37, "geometry": {"type": "Point", "coordinates": [-118.418554999999, 33.9163747]}, "properties": {"FID": 37, "Company": "CHEVRON CORP", "Name": "CHEVRON USA INC", "Terminal_S": "Oil Refinery", "City": "EL SEGUNDO", "State": "California", "Country": "US", "Zip": "90245", "Longitude": -118.418555, "Latitude": 33.916375, "Cty_Parish": ".", "Storage": ".", "SendOut": "276000", "Markets": "West Coast", "Availabili": ".", "Type": ".", "Imp_Exp": ".", "Status": ".", "FERC_MARAD": ".", "Address": "324 West El Segundo Boulevard"}}, {"type": "Feature", "id": 38, "geometry": {"type": "Point", "coordinates": [-114.8886296, 39.2474393]}, "properties": {"FID": 38, "Company": "FORELAND REFINING CORP", "Name": "FORELAND REFINING CORP", "Terminal_S": "Oil Refinery", "City": "ELY", "State": "Nevada", "Country": "US", "Zip": "89301", "Longitude": -114.88863, "Latitude": 39.247439, "Cty_Parish": ".", "Storage": ".", "SendOut": "2000", "Markets": "West Coast", "Availabili": ".", "Type": ".", "Imp_Exp": ".", "Status": ".", "FERC_MARAD": ".", "Address": "HC 34 Box 34830"}}, {"type": "Feature", "id": 39, "geometry": {"type": "Point", "coordinates": [-110.963565, 41.273825]}, "properties": {"FID": 39, "Company": "SILVER EAGLE REFINING INC", "Name": "Silver Eagle Refining", "Terminal_S": "Oil Refinery", "City": "EVANSTON", "State": "Wyoming", "Country": "US", "Zip": "82930", "Longitude": -110.963565, "Latitude": 41.273825, "Cty_Parish": ".", "Storage": ".", "SendOut": "3000", "Markets": "Rocky Mountain", "Availabili": ".", "Type": ".", "Imp_Exp": ".", "Status": ".", "FERC_MARAD": ".", "Address": "2990 County Road 180"}}, {"type": "Feature", "id": 40, "geometry": {"type": "Point", "coordinates": [-106.0693759, 42.8573471]}, "properties": {"FID": 40, "Company": "SINCLAIR OIL CORP", "Name": "LITTLE AMERICA REFINING CO", "Terminal_S": "Oil Refinery", "City": "EVANSVILLE", "State": "Wyoming", "Country": "US", "Zip": "82636", "Longitude": -106.069376, "Latitude": 42.857347, "Cty_Parish": ".", "Storage": ".", "SendOut": "24500", "Markets": "Rocky Mountain", "Availabili": ".", "Type": ".", "Imp_Exp": ".", "Status": ".", "FERC_MARAD": ".", "Address": "5700 E Highway 20 26"}}, {"type": "Feature", "id": 41, "geometry": {"type": "Point", "coordinates": [-158.0098549, 21.316013]}, "properties": {"FID": 41, "Company": "TESORO CORP", "Name": "TESORO HAWAII CORP", "Terminal_S": "Oil Refinery", "City": "EWA BEACH", "State": "Hawaii", "Country": "US", "Zip": "96706", "Longitude": -158.009855, "Latitude": 21.316013, "Cty_Parish": ".", "Storage": ".", "SendOut": "93500", "Markets": "West Coast", "Availabili": ".", "Type": ".", "Imp_Exp": ".", "Status": ".", "FERC_MARAD": ".", "Address": "91-1669 Fort Weaver Road"}}, {"type": "Feature", "id": 42, "geometry": {"type": "Point", "coordinates": [-122.733764599999, 48.8894958]}, "properties": {"FID": 42, "Company": "BP PLC", "Name": "BP West Coast Products LLC", "Terminal_S": "Oil Refinery", "City": "FERNDALE", "State": "Washington", "Country": "US", "Zip": "98230", "Longitude": -122.733765, "Latitude": 48.889496, "Cty_Parish": ".", "Storage": ".", "SendOut": "225000", "Markets": "West Coast", "Availabili": ".", "Type": ".", "Imp_Exp": ".", "Status": ".", "FERC_MARAD": ".", "Address": "4519 Grandview Road"}}, {"type": "Feature", "id": 43, "geometry": {"type": "Point", "coordinates": [-122.6910619, 48.833948]}, "properties": {"FID": 43, "Company": "CONOCOPHILLIPS", "Name": "CONOCOPHILLIPS COMPANY", "Terminal_S": "Oil Refinery", "City": "FERNDALE", "State": "Washington", "Country": "US", "Zip": "98248", "Longitude": -122.691062, "Latitude": 48.833948, "Cty_Parish": ".", "Storage": ".", "SendOut": "100000", "Markets": "West Coast", "Availabili": ".", "Type": ".", "Imp_Exp": ".", "Status": ".", "FERC_MARAD": ".", "Address": "3901 Unick Road\u00a0\u00a0Ferndale"}}, {"type": "Feature", "id": 44, "geometry": {"type": "Point", "coordinates": [-108.742992, 35.5245477]}, "properties": {"FID": 44, "Company": "WESTERN REFINING INC.", "Name": "WESTERN REFINING SOUTHWEST INC", "Terminal_S": "Oil Refinery", "City": "GALLUP", "State": "New Mexico", "Country": "US", "Zip": "87301", "Longitude": -108.742992, "Latitude": 35.524548, "Cty_Parish": ".", "Storage": ".", "SendOut": "21100", "Markets": "New Mexico", "Availabili": ".", "Type": ".", "Imp_Exp": ".", "Status": ".", "FERC_MARAD": ".", "Address": "Route 3"}}, {"type": "Feature", "id": 45, "geometry": {"type": "Point", "coordinates": [-90.6038403999999, 30.073235]}, "properties": {"FID": 45, "Company": "MARATHON PETROLEUM CORP", "Name": "MARATHON PETROLEUM CO LLC", "Terminal_S": "Oil Refinery", "City": "GARYVILLE", "State": "Louisiana", "Country": "US", "Zip": "70051", "Longitude": -90.60384, "Latitude": 30.073235, "Cty_Parish": ".", "Storage": ".", "SendOut": "490000", "Markets": "Louisiana Gulf Coast", "Availabili": ".", "Type": ".", "Imp_Exp": ".", "Status": ".", "FERC_MARAD": ".", "Address": "4663 West Airline Highway"}}, {"type": "Feature", "id": 46, "geometry": {"type": "Point", "coordinates": [-111.29027, 47.5259143]}, "properties": {"FID": 46, "Company": "CONNACHER OIL & GAS LTD", "Name": "MONTANA REFINING CO", "Terminal_S": "Oil Refinery", "City": "GREAT FALLS", "State": "Montana", "Country": "US", "Zip": "59404", "Longitude": -111.29027, "Latitude": 47.525914, "Cty_Parish": ".", "Storage": ".", "SendOut": "10000", "Markets": "Rocky Mountain", "Availabili": ".", "Type": ".", "Imp_Exp": ".", "Status": ".", "FERC_MARAD": ".", "Address": "1900 10th Street Northeast"}}, {"type": "Feature", "id": 47, "geometry": {"type": "Point", "coordinates": [-158.113774499999, 21.3138558]}, "properties": {"FID": 47, "Company": "CHEVRON CORP", "Name": "CHEVRON USA INC", "Terminal_S": "Oil Refinery", "City": "HONOLULU", "State": "Hawaii", "Country": "US", "Zip": "96709", "Longitude": -158.113774, "Latitude": 21.313856, "Cty_Parish": ".", "Storage": ".", "SendOut": "54000", "Markets": "West Coast", "Availabili": ".", "Type": ".", "Imp_Exp": ".", "Status": ".", "FERC_MARAD": ".", "Address": "91-480 Malakole Street"}}, {"type": "Feature", "id": 48, "geometry": {"type": "Point", "coordinates": [-95.2362304, 29.7096957]}, "properties": {"FID": 48, "Company": "ACCESS INDUSTRIES", "Name": "HOUSTON REFINING LP", "Terminal_S": "Oil Refinery", "City": "HOUSTON", "State": "Texas", "Country": "US", "Zip": "77017", "Longitude": -95.23623, "Latitude": 29.709696, "Cty_Parish": ".", "Storage": ".", "SendOut": "273433", "Markets": "Texas Gulf Coast", "Availabili": ".", "Type": ".", "Imp_Exp": ".", "Status": ".", "FERC_MARAD": ".", "Address": "12000 Lawndale"}}, {"type": "Feature", "id": 49, "geometry": {"type": "Point", "coordinates": [-95.2569499999999, 29.718992]}, "properties": {"FID": 49, "Company": "VALERO ENERGY CORP", "Name": "VALERO REFINING CO TEXAS LP", "Terminal_S": "Oil Refinery", "City": "HOUSTON", "State": "Texas", "Country": "US", "Zip": "77012", "Longitude": -95.25695, "Latitude": 29.718992, "Cty_Parish": ".", "Storage": ".", "SendOut": "88000", "Markets": "Texas Gulf Coast", "Availabili": ".", "Type": ".", "Imp_Exp": ".", "Status": ".", "FERC_MARAD": ".", "Address": "9701 Manchester Street"}}, {"type": "Feature", "id": 50, "geometry": {"type": "Point", "coordinates": [-88.1952941, 41.4162466]}, "properties": {"FID": 50, "Company": "EXXON MOBIL CORP", "Name": "EXXONMOBIL REFINING & SUPPLY CO", "Terminal_S": "Oil Refinery", "City": "JOLIET", "State": "Illinois", "Country": "US", "Zip": "60410", "Longitude": -88.195294, "Latitude": 41.416247, "Cty_Parish": ".", "Storage": ".", "SendOut": "238600", "Markets": "Indiana-Illinois-Kentucky", "Availabili": ".", "Type": ".", "Imp_Exp": ".", "Status": ".", "FERC_MARAD": ".", "Address": "Interstate 55 & Arsenal Road"}}, {"type": "Feature", "id": 51, "geometry": {"type": "Point", "coordinates": [-151.3699569, 60.6864392]}, "properties": {"FID": 51, "Company": "TESORO CORP", "Name": "TESORO ALASKA PETROLEUM CO", "Terminal_S": "Oil Refinery", "City": "KENAI", "State": "Alaska", "Country": "US", "Zip": "99611", "Longitude": -151.369957, "Latitude": 60.686439, "Cty_Parish": ".", "Storage": ".", "SendOut": "68000", "Markets": "West Coast", "Availabili": ".", "Type": ".", "Imp_Exp": ".", "Status": ".", "FERC_MARAD": ".", "Address": "54741 Tesoro Road"}}, {"type": "Feature", "id": 52, "geometry": {"type": "Point", "coordinates": [-64.7031977, 17.7466397]}, "properties": {"FID": 52, "Company": "HOVENSA LLC", "Name": "Hovensa LLC", "Terminal_S": "Oil Refinery", "City": "KINGSHILL", "State": "Virgin Islands", "Country": "US", "Zip": "820", "Longitude": -64.703198, "Latitude": 17.74664, "Cty_Parish": ".", "Storage": ".", "SendOut": "350000", "Markets": "Puerto Rico-Virgin Islands", "Availabili": ".", "Type": ".", "Imp_Exp": ".", "Status": ".", "FERC_MARAD": ".", "Address": "1 Estate Hope"}}, {"type": "Feature", "id": 53, "geometry": {"type": "Point", "coordinates": [-91.7520528, 30.5407117]}, "properties": {"FID": 53, "Company": "ALON ISRAEL OIL COMPANY LTD", "Name": "ALON REFINING KROTZ SPRINGS INC", "Terminal_S": "Oil Refinery", "City": "KROTZ SPRINGS", "State": "Louisiana", "Country": "US", "Zip": "70750", "Longitude": -91.752053, "Latitude": 30.540712, "Cty_Parish": ".", "Storage": ".", "SendOut": "80000", "Markets": "Louisiana Gulf Coast", "Availabili": ".", "Type": ".", "Imp_Exp": ".", "Status": ".", "FERC_MARAD": ".", "Address": "356 South Levee Road"}}, {"type": "Feature", "id": 54, "geometry": {"type": "Point", "coordinates": [-93.3108816, 30.1245685]}, "properties": {"FID": 54, "Company": "TRANSWORLD OIL USA INC", "Name": "CALCASIEU REFINING CO", "Terminal_S": "Oil Refinery", "City": "LAKE CHARLES", "State": "Louisiana", "Country": "US", "Zip": "70605", "Longitude": -93.310882, "Latitude": 30.124568, "Cty_Parish": ".", "Storage": ".", "SendOut": "78000", "Markets": "Louisiana Gulf Coast", "Availabili": ".", "Type": ".", "Imp_Exp": ".", "Status": ".", "FERC_MARAD": ".", "Address": "4359 West Tank Farm Road"}}, {"type": "Feature", "id": 55, "geometry": {"type": "Point", "coordinates": [-93.2784825, 30.1412524]}, "properties": {"FID": 55, "Company": "PDV AMERICA INC", "Name": "CITGO PETROLEUM CORP", "Terminal_S": "Oil Refinery", "City": "LAKE CHARLES", "State": "Louisiana", "Country": "US", "Zip": "70605", "Longitude": -93.278482, "Latitude": 30.141252, "Cty_Parish": ".", "Storage": ".", "SendOut": "427800", "Markets": "Louisiana Gulf Coast", "Availabili": ".", "Type": ".", "Imp_Exp": ".", "Status": ".", "FERC_MARAD": ".", "Address": "Calcasieu Ship Channel"}}, {"type": "Feature", "id": 56, "geometry": {"type": "Point", "coordinates": [-108.7661655, 45.6598242]}, "properties": {"FID": 56, "Company": "CHS INC", "Name": "Cenex Harvest States Coop", "Terminal_S": "Oil Refinery", "City": "LAUREL", "State": "Montana", "Country": "US", "Zip": "59044", "Longitude": -108.766166, "Latitude": 45.659824, "Cty_Parish": ".", "Storage": ".", "SendOut": "59600", "Markets": "Rocky Mountain", "Availabili": ".", "Type": ".", "Imp_Exp": ".", "Status": ".", "FERC_MARAD": ".", "Address": "803 U.S. 212"}}, {"type": "Feature", "id": 57, "geometry": {"type": "Point", "coordinates": [-88.0486372, 41.6409284]}, "properties": {"FID": 57, "Company": "PDV AMERICA INC", "Name": "PDV Midwest Refining LLC", "Terminal_S": "Oil Refinery", "City": "LEMONT", "State": "Illinois", "Country": "US", "Zip": "60439", "Longitude": -88.048637, "Latitude": 41.640928, "Cty_Parish": ".", "Storage": ".", "SendOut": "167000", "Markets": "Indiana-Illinois-Kentucky", "Availabili": ".", "Type": ".", "Imp_Exp": ".", "Status": ".", "FERC_MARAD": ".", "Address": "135th Street & New Avenue"}}, {"type": "Feature", "id": 58, "geometry": {"type": "Point", "coordinates": [-84.1142047999999, 40.7209165]}, "properties": {"FID": 58, "Company": "HUSKY ENERGY INC", "Name": "LIMA REFINING COMPANY", "Terminal_S": "Oil Refinery", "City": "LIMA", "State": "Ohio", "Country": "US", "Zip": "45804", "Longitude": -84.114205, "Latitude": 40.720917, "Cty_Parish": ".", "Storage": ".", "SendOut": "155000", "Markets": "Indiana-Illinois-Kentucky", "Availabili": ".", "Type": ".", "Imp_Exp": ".", "Status": ".", "FERC_MARAD": ".", "Address": "1150 South Metcalf Street"}}, {"type": "Feature", "id": 59, "geometry": {"type": "Point", "coordinates": [-74.2193644, 40.6407511]}, "properties": {"FID": 59, "Company": "CONOCOPHILLIPS", "Name": "CONOCOPHILLIPS COMPANY", "Terminal_S": "Oil Refinery", "City": "LINDEN", "State": "New Jersey", "Country": "US", "Zip": "7036", "Longitude": -74.219364, "Latitude": 40.640751, "Cty_Parish": ".", "Storage": ".", "SendOut": "238000", "Markets": "East Coast", "Availabili": ".", "Type": ".", "Imp_Exp": ".", "Status": ".", "FERC_MARAD": ".", "Address": "1400 South Park Avenue"}}, {"type": "Feature", "id": 60, "geometry": {"type": "Point", "coordinates": [-118.2319064, 33.8225114]}, "properties": {"FID": 60, "Company": "BP PLC", "Name": "BP West Coast Products LLC", "Terminal_S": "Oil Refinery", "City": "LOS ANGELES", "State": "California", "Country": "US", "Zip": "90745", "Longitude": -118.231906, "Latitude": 33.822511, "Cty_Parish": ".", "Storage": ".", "SendOut": "240000", "Markets": "West Coast", "Availabili": ".", "Type": ".", "Imp_Exp": ".", "Status": ".", "FERC_MARAD": ".", "Address": "2350 East 223rd Street"}}, {"type": "Feature", "id": 61, "geometry": {"type": "Point", "coordinates": [-100.902298999999, 46.8445806999999]}, "properties": {"FID": 61, "Company": "TESORO CORP", "Name": "Tesoro West Coast", "Terminal_S": "Oil Refinery", "City": "MANDAN", "State": "North Dakota", "Country": "US", "Zip": "58554", "Longitude": -100.902299, "Latitude": 46.844581, "Cty_Parish": ".", "Storage": ".", "SendOut": "60000", "Markets": "Minnesota-Wisconsin-North and South Dakota", "Availabili": ".", "Type": ".", "Imp_Exp": ".", "Status": ".", "FERC_MARAD": ".", "Address": "900 Township Road 10"}}, {"type": "Feature", "id": 62, "geometry": {"type": "Point", "coordinates": [-122.1065045, 38.0123919]}, "properties": {"FID": 62, "Company": "ROYAL DUTCH/SHELL GROUP", "Name": "Shell Oil Products US", "Terminal_S": "Oil Refinery", "City": "MARTINEZ", "State": "California", "Country": "US", "Zip": "94553", "Longitude": -122.106505, "Latitude": 38.012392, "Cty_Parish": ".", "Storage": ".", "SendOut": "156400", "Markets": "West Coast", "Availabili": ".", "Type": ".", "Imp_Exp": ".", "Status": ".", "FERC_MARAD": ".", "Address": "3485 Pacheco Boulevard"}}, {"type": "Feature", "id": 63, "geometry": {"type": "Point", "coordinates": [-122.071907, 38.033363]}, "properties": {"FID": 63, "Company": "TESORO CORP", "Name": "TESORO REFINING & MARKETING CO", "Terminal_S": "Oil Refinery", "City": "MARTINEZ", "State": "California", "Country": "US", "Zip": "94553", "Longitude": -122.071907, "Latitude": 38.033363, "Cty_Parish": ".", "Storage": ".", "SendOut": "166000", "Markets": "West Coast", "Availabili": ".", "Type": ".", "Imp_Exp": ".", "Status": ".", "FERC_MARAD": ".", "Address": "150 Solano Way"}}, {"type": "Feature", "id": 64, "geometry": {"type": "Point", "coordinates": [-97.668697, 38.347141]}, "properties": {"FID": 64, "Company": "CHS INC", "Name": "NCRA", "Terminal_S": "Oil Refinery", "City": "MCPHERSON", "State": "Kansas", "Country": "US", "Zip": "67460", "Longitude": -97.668697, "Latitude": 38.347141, "Cty_Parish": ".", "Storage": ".", "SendOut": "85500", "Markets": "Oklahoma-Kansas-Missouri", "Availabili": ".", "Type": ".", "Imp_Exp": ".", "Status": ".", "FERC_MARAD": ".", "Address": "1391 Iron Horse Road"}}, {"type": "Feature", "id": 65, "geometry": {"type": "Point", "coordinates": [-90.0725506999999, 35.0738958]}, "properties": {"FID": 65, "Company": "VALERO ENERGY CORP", "Name": "PREMCOR REFINING GROUP INC", "Terminal_S": "Oil Refinery", "City": "MEMPHIS", "State": "Tennessee", "Country": "US", "Zip": "38109", "Longitude": -90.072551, "Latitude": 35.073896, "Cty_Parish": ".", "Storage": ".", "SendOut": "180000", "Markets": "Indiana-Illinois-Kentucky", "Availabili": ".", "Type": ".", "Imp_Exp": ".", "Status": ".", "FERC_MARAD": ".", "Address": "490 Rivergate Drive"}}, {"type": "Feature", "id": 66, "geometry": {"type": "Point", "coordinates": [-89.9438131, 29.9300414]}, "properties": {"FID": 66, "Company": "VALERO ENERGY CORP", "Name": "VALERO ENERGY CORPORATION", "Terminal_S": "Oil Refinery", "City": "MERAUX", "State": "Louisiana", "Country": "US", "Zip": "70075", "Longitude": -89.943813, "Latitude": 29.930041, "Cty_Parish": ".", "Storage": ".", "SendOut": "125000", "Markets": "Louisiana Gulf Coast", "Availabili": ".", "Type": ".", "Imp_Exp": ".", "Status": ".", "FERC_MARAD": ".", "Address": "2500 East Saint Bernard Highway"}}, {"type": "Feature", "id": 67, "geometry": {"type": "Point", "coordinates": [-87.9099509999999, 37.9418219999999]}, "properties": {"FID": 67, "Company": "COUNTRYMARK COOP INC", "Name": "COUNTRYMARK COOPERATIVE INC", "Terminal_S": "Oil Refinery", "City": "MOUNT VERNON", "State": "Indiana", "Country": "US", "Zip": "47620", "Longitude": -87.909951, "Latitude": 37.941822, "Cty_Parish": ".", "Storage": ".", "SendOut": "26500", "Markets": "Indiana-Illinois-Kentucky", "Availabili": ".", "Type": ".", "Imp_Exp": ".", "Status": ".", "FERC_MARAD": ".", "Address": "1200 Refinery Road"}}, {"type": "Feature", "id": 68, "geometry": {"type": "Point", "coordinates": [-104.2144847, 43.8488348]}, "properties": {"FID": 68, "Company": "BLACK ELK REFINING LLC", "Name": "WYOMING REFINING CO", "Terminal_S": "Oil Refinery", "City": "NEW CASTLE", "State": "Wyoming", "Country": "US", "Zip": "82701", "Longitude": -104.214485, "Latitude": 43.848835, "Cty_Parish": ".", "Storage": ".", "SendOut": "14000", "Markets": "Rocky Mountain", "Availabili": ".", "Type": ".", "Imp_Exp": ".", "Status": ".", "FERC_MARAD": ".", "Address": "740 West Main Street"}}, {"type": "Feature", "id": 69, "geometry": {"type": "Point", "coordinates": [-80.629077, 40.609189]}, "properties": {"FID": 69, "Company": "ERGON INC", "Name": "ERGON WEST VIRGINIA INC", "Terminal_S": "Oil Refinery", "City": "NEWELL", "State": "West Virginia", "Country": "US", "Zip": "26050", "Longitude": -80.629077, "Latitude": 40.609189, "Cty_Parish": ".", "Storage": ".", "SendOut": "20000", "Markets": "Appalachian No. 1", "Availabili": ".", "Type": ".", "Imp_Exp": ".", "Status": ".", "FERC_MARAD": ".", "Address": "9995 Ohio River Boulevard"}}, {"type": "Feature", "id": 70, "geometry": {"type": "Point", "coordinates": [-90.2660288999999, 29.986209]}, "properties": {"FID": 70, "Company": "MOTIVA ENTERPRISES LLC", "Name": "Motiva Enterprises LLC", "Terminal_S": "Oil Refinery", "City": "NORCO", "State": "Louisiana", "Country": "US", "Zip": "70062", "Longitude": -90.266029, "Latitude": 29.986209, "Cty_Parish": ".", "Storage": ".", "SendOut": "233500", "Markets": "Louisiana Gulf Coast", "Availabili": ".", "Type": ".", "Imp_Exp": ".", "Status": ".", "FERC_MARAD": ".", "Address": "143 South Firehouse Road"}}, {"type": "Feature", "id": 71, "geometry": {"type": "Point", "coordinates": [-90.3952871999999, 29.9857366]}, "properties": {"FID": 71, "Company": "VALERO ENERGY CORP", "Name": "VALERO REFINING NEW ORLEANS LLC", "Terminal_S": "Oil Refinery", "City": "NORCO", "State": "Louisiana", "Country": "US", "Zip": "70047", "Longitude": -90.395287, "Latitude": 29.985737, "Cty_Parish": ".", "Storage": ".", "SendOut": "205000", "Markets": "Louisiana Gulf Coast", "Availabili": ".", "Type": ".", "Imp_Exp": ".", "Status": ".", "FERC_MARAD": ".", "Address": "14902 River Road\u00a0\u00a0Destrehan"}}, {"type": "Feature", "id": 72, "geometry": {"type": "Point", "coordinates": [-147.342581699999, 64.7359637]}, "properties": {"FID": 72, "Company": "KOCH INDUSTRIES INC", "Name": "FLINT HILLS RESOURCES LP", "Terminal_S": "Oil Refinery", "City": "NORTH POLE", "State": "Alaska", "Country": "US", "Zip": "99705", "Longitude": -147.342582, "Latitude": 64.735964, "Cty_Parish": ".", "Storage": ".", "SendOut": "127459", "Markets": "West Coast", "Availabili": ".", "Type": ".", "Imp_Exp": ".", "Status": ".", "FERC_MARAD": ".", "Address": "1200 H & H Lane"}}, {"type": "Feature", "id": 73, "geometry": {"type": "Point", "coordinates": [-147.342581699999, 64.7359637]}, "properties": {"FID": 73, "Company": "ARCTIC SLOPE REGIONAL CORP", "Name": "PETRO STAR INC", "Terminal_S": "Oil Refinery", "City": "NORTH POLE", "State": "Alaska", "Country": "US", "Zip": "99705", "Longitude": -147.342582, "Latitude": 64.735964, "Cty_Parish": ".", "Storage": ".", "SendOut": "19700", "Markets": "West Coast", "Availabili": ".", "Type": ".", "Imp_Exp": ".", "Status": ".", "FERC_MARAD": ".", "Address": "1200 H & H Lane"}}, {"type": "Feature", "id": 74, "geometry": {"type": "Point", "coordinates": [-111.925123999999, 40.8418955]}, "properties": {"FID": 74, "Company": "FJ MANAGEMENT INC", "Name": "BIG WEST OIL CO", "Terminal_S": "Oil Refinery", "City": "NORTH SALT LAKE", "State": "Utah", "Country": "US", "Zip": "84054", "Longitude": -111.925124, "Latitude": 40.841896, "Cty_Parish": ".", "Storage": ".", "SendOut": "29400", "Markets": "Rocky Mountain", "Availabili": ".", "Type": ".", "Imp_Exp": ".", "Status": ".", "FERC_MARAD": ".", "Address": "333 West Center Street"}}, {"type": "Feature", "id": 75, "geometry": {"type": "Point", "coordinates": [-95.2103314, 29.7185993]}, "properties": {"FID": 75, "Company": "PETROLEO BRASILEIRO SA", "Name": "PASADENA REFINING SYSTEMS INC", "Terminal_S": "Oil Refinery", "City": "PASADENA", "State": "Texas", "Country": "US", "Zip": "77506", "Longitude": -95.210331, "Latitude": 29.718599, "Cty_Parish": ".", "Storage": ".", "SendOut": "100000", "Markets": "Texas Gulf Coast", "Availabili": ".", "Type": ".", "Imp_Exp": ".", "Status": ".", "FERC_MARAD": ".", "Address": "111 Red Bluff Road"}}, {"type": "Feature", "id": 76, "geometry": {"type": "Point", "coordinates": [-88.5007215, 30.3779914]}, "properties": {"FID": 76, "Company": "CHEVRON CORP", "Name": "CHEVRON USA INC", "Terminal_S": "Oil Refinery", "City": "PASCAGOULA", "State": "Mississippi", "Country": "US", "Zip": "39581", "Longitude": -88.500721, "Latitude": 30.377991, "Cty_Parish": ".", "Storage": ".", "SendOut": "330000", "Markets": "Louisiana Gulf Coast", "Availabili": ".", "Type": ".", "Imp_Exp": ".", "Status": ".", "FERC_MARAD": ".", "Address": "250 Industrial Road"}}, {"type": "Feature", "id": 77, "geometry": {"type": "Point", "coordinates": [-75.2531472, 39.8345475]}, "properties": {"FID": 77, "Company": "PBF ENERGY CO LLC", "Name": "PAULSBORO REFINING CO LLC", "Terminal_S": "Oil Refinery", "City": "PAULSBORO", "State": "New Jersey", "Country": "US", "Zip": "8066", "Longitude": -75.253147, "Latitude": 39.834547, "Cty_Parish": ".", "Storage": ".", "SendOut": "160000", "Markets": "East Coast", "Availabili": ".", "Type": ".", "Imp_Exp": ".", "Status": ".", "FERC_MARAD": ".", "Address": "800 Billingsport Road"}}, {"type": "Feature", "id": 78, "geometry": {"type": "Point", "coordinates": [-75.1978818, 39.9201132]}, "properties": {"FID": 78, "Company": "SUNOCO INC", "Name": "SUNOCO INC (R&M)", "Terminal_S": "Oil Refinery", "City": "PHILADELPHIA", "State": "Pennsylvania", "Country": "US", "Zip": "19145", "Longitude": -75.197882, "Latitude": 39.920113, "Cty_Parish": ".", "Storage": ".", "SendOut": "335000", "Markets": "East Coast", "Availabili": ".", "Type": ".", "Imp_Exp": ".", "Status": ".", "FERC_MARAD": ".", "Address": "3144 West Passyunk Avenue"}}, {"type": "Feature", "id": 79, "geometry": {"type": "Point", "coordinates": [-97.0897569999999, 36.6915539]}, "properties": {"FID": 79, "Company": "CONOCOPHILLIPS", "Name": "CONOCOPHILLIPS COMPANY", "Terminal_S": "Oil Refinery", "City": "PONCA CITY", "State": "Oklahoma", "Country": "US", "Zip": "74601", "Longitude": -97.089757, "Latitude": 36.691554, "Cty_Parish": ".", "Storage": ".", "SendOut": "198400", "Markets": "Oklahoma-Kansas-Missouri", "Availabili": ".", "Type": ".", "Imp_Exp": ".", "Status": ".", "FERC_MARAD": ".", "Address": "1000 South Pine Street"}}, {"type": "Feature", "id": 80, "geometry": {"type": "Point", "coordinates": [-91.2108587, 30.4766613]}, "properties": {"FID": 80, "Company": "PLACID OIL CO", "Name": "PLACID REFINING CO", "Terminal_S": "Oil Refinery", "City": "PORT ALLEN", "State": "Louisiana", "Country": "US", "Zip": "70767", "Longitude": -91.210859, "Latitude": 30.476661, "Cty_Parish": ".", "Storage": ".", "SendOut": "57000", "Markets": "Louisiana Gulf Coast", "Availabili": ".", "Type": ".", "Imp_Exp": ".", "Status": ".", "FERC_MARAD": ".", "Address": "1940 La Highway 1 North"}}, {"type": "Feature", "id": 81, "geometry": {"type": "Point", "coordinates": [-93.9509845, 29.8884623]}, "properties": {"FID": 81, "Company": "MOTIVA ENTERPRISES LLC", "Name": "Motiva Enterprises LLC", "Terminal_S": "Oil Refinery", "City": "PORT ARTHUR", "State": "Texas", "Country": "US", "Zip": "77640", "Longitude": -93.950985, "Latitude": 29.888462, "Cty_Parish": ".", "Storage": ".", "SendOut": "285000", "Markets": "Texas Gulf Coast", "Availabili": ".", "Type": ".", "Imp_Exp": ".", "Status": ".", "FERC_MARAD": ".", "Address": "2555 Savannah Avenue"}}, {"type": "Feature", "id": 82, "geometry": {"type": "Point", "coordinates": [-93.9651455, 29.8664983]}, "properties": {"FID": 82, "Company": "VALERO ENERGY CORP", "Name": "PREMCOR REFINING GROUP INC", "Terminal_S": "Oil Refinery", "City": "PORT ARTHUR", "State": "Texas", "Country": "US", "Zip": "77640", "Longitude": -93.965146, "Latitude": 29.866498, "Cty_Parish": ".", "Storage": ".", "SendOut": "290000", "Markets": "Texas Gulf Coast", "Availabili": ".", "Type": ".", "Imp_Exp": ".", "Status": ".", "FERC_MARAD": ".", "Address": "1801 South Gulfway Drive"}}, {"type": "Feature", "id": 83, "geometry": {"type": "Point", "coordinates": [-93.8975272, 29.9578882999999]}, "properties": {"FID": 83, "Company": "TOTAL SA", "Name": "TOTAL PETROCHEMICALS INC", "Terminal_S": "Oil Refinery", "City": "PORT ARTHUR", "State": "Texas", "Country": "US", "Zip": "77642", "Longitude": -93.897527, "Latitude": 29.957888, "Cty_Parish": ".", "Storage": ".", "SendOut": "130000", "Markets": "Texas Gulf Coast", "Availabili": ".", "Type": ".", "Imp_Exp": ".", "Status": ".", "FERC_MARAD": ".", "Address": "7600 32nd Street"}}, {"type": "Feature", "id": 84, "geometry": {"type": "Point", "coordinates": [-93.5150975, 32.5892135]}, "properties": {"FID": 84, "Company": "CALUMET LUBRICANTS CO", "Name": "CALUMET LUBRICANTS CO LP", "Terminal_S": "Oil Refinery", "City": "PRINCETON", "State": "Louisiana", "Country": "US", "Zip": "71067", "Longitude": -93.515097, "Latitude": 32.589214, "Cty_Parish": ".", "Storage": ".", "SendOut": "8300", "Markets": "North Louisiana-Arkansas", "Availabili": ".", "Type": ".", "Imp_Exp": ".", "Status": ".", "FERC_MARAD": ".", "Address": "10234 Louisiana 157"}}, {"type": "Feature", "id": 85, "geometry": {"type": "Point", "coordinates": [-148.3384293, 70.2556453]}, "properties": {"FID": 85, "Company": "BP PLC", "Name": "BP EXPLORATION ALASKA INC", "Terminal_S": "Oil Refinery", "City": "PRUDHOE BAY", "State": "Alaska", "Country": "US", "Zip": "99734", "Longitude": -148.338429, "Latitude": 70.255645, "Cty_Parish": ".", "Storage": ".", "SendOut": "6935", "Markets": "West Coast", "Availabili": ".", "Type": ".", "Imp_Exp": ".", "Status": ".", "FERC_MARAD": ".", "Address": " "}}, {"type": "Feature", "id": 86, "geometry": {"type": "Point", "coordinates": [-148.3384293, 70.2556453]}, "properties": {"FID": 86, "Company": "CONOCOPHILLIPS", "Name": "CONOCOPHILLIPS ALASKA INC", "Terminal_S": "Oil Refinery", "City": "PRUDHOE BAY", "State": "Alaska", "Country": "US", "Zip": "99734", "Longitude": -148.338429, "Latitude": 70.255645, "Cty_Parish": ".", "Storage": ".", "SendOut": "15000", "Markets": "West Coast", "Availabili": ".", "Type": ".", "Imp_Exp": ".", "Status": ".", "FERC_MARAD": ".", "Address": " "}}, {"type": "Feature", "id": 87, "geometry": {"type": "Point", "coordinates": [-122.390720999999, 37.931302]}, "properties": {"FID": 87, "Company": "CHEVRON CORP", "Name": "CHEVRON USA INC", "Terminal_S": "Oil Refinery", "City": "RICHMOND", "State": "California", "Country": "US", "Zip": "94801", "Longitude": -122.390721, "Latitude": 37.931302, "Cty_Parish": ".", "Storage": ".", "SendOut": "245271", "Markets": "West Coast", "Availabili": ".", "Type": ".", "Imp_Exp": ".", "Status": ".", "FERC_MARAD": ".", "Address": "841 Chevron way"}}, {"type": "Feature", "id": 88, "geometry": {"type": "Point", "coordinates": [-87.7582906999999, 39.005613]}, "properties": {"FID": 88, "Company": "MARATHON PETROLEUM CORP", "Name": "MARATHON PETROLEUM CO LLC", "Terminal_S": "Oil Refinery", "City": "ROBINSON", "State": "Illinois", "Country": "US", "Zip": "62454", "Longitude": -87.758291, "Latitude": 39.005613, "Cty_Parish": ".", "Storage": ".", "SendOut": "206000", "Markets": "Indiana-Illinois-Kentucky", "Availabili": ".", "Type": ".", "Imp_Exp": ".", "Status": ".", "FERC_MARAD": ".", "Address": "12345 East 1050th Avenue"}}, {"type": "Feature", "id": 89, "geometry": {"type": "Point", "coordinates": [-122.2373989, 38.0180852]}, "properties": {"FID": 89, "Company": "CONOCOPHILLIPS", "Name": "CONOCOPHILLIPS COMPANY", "Terminal_S": "Oil Refinery", "City": "RODEO", "State": "California", "Country": "US", "Zip": "94572", "Longitude": -122.237399, "Latitude": 38.018085, "Cty_Parish": ".", "Storage": ".", "SendOut": "120200", "Markets": "West Coast", "Availabili": ".", "Type": ".", "Imp_Exp": ".", "Status": ".", "FERC_MARAD": ".", "Address": "2101 Franklin Canyon Road"}}, {"type": "Feature", "id": 90, "geometry": {"type": "Point", "coordinates": [-93.047179, 44.930158]}, "properties": {"FID": 90, "Company": "KOCH INDUSTRIES INC", "Name": "Flint Hills Resources LP", "Terminal_S": "Oil Refinery", "City": "SAINT PAUL", "State": "Minnesota", "Country": "US", "Zip": "55106", "Longitude": -93.047179, "Latitude": 44.930158, "Cty_Parish": ".", "Storage": ".", "SendOut": "277200", "Markets": "Minnesota-Wisconsin-North and South Dakota", "Availabili": ".", "Type": ".", "Imp_Exp": ".", "Status": ".", "FERC_MARAD": ".", "Address": "2209 Childs Road"}}, {"type": "Feature", "id": 91, "geometry": {"type": "Point", "coordinates": [-92.9935515999999, 44.84904]}, "properties": {"FID": 91, "Company": "NORTHERN TIER ENERGY LLC", "Name": "ST PAUL PARK REFINING CO LLC", "Terminal_S": "Oil Refinery", "City": "SAINT PAUL", "State": "Minnesota", "Country": "US", "Zip": "55071", "Longitude": -92.993552, "Latitude": 44.84904, "Cty_Parish": ".", "Storage": ".", "SendOut": "74000", "Markets": "Minnesota-Wisconsin-North and South Dakota", "Availabili": ".", "Type": ".", "Imp_Exp": ".", "Status": ".", "FERC_MARAD": ".", "Address": "301 Saint Paul Park Road"}}, {"type": "Feature", "id": 92, "geometry": {"type": "Point", "coordinates": [-111.921623399999, 40.8193705]}, "properties": {"FID": 92, "Company": "CHEVRON CORP", "Name": "CHEVRON USA INC", "Terminal_S": "Oil Refinery", "City": "SALT LAKE CITY", "State": "Utah", "Country": "US", "Zip": "84116", "Longitude": -111.921623, "Latitude": 40.81937, "Cty_Parish": ".", "Storage": ".", "SendOut": "45000", "Markets": "Rocky Mountain", "Availabili": ".", "Type": ".", "Imp_Exp": ".", "Status": ".", "FERC_MARAD": ".", "Address": "2351 North 1100 West"}}, {"type": "Feature", "id": 93, "geometry": {"type": "Point", "coordinates": [-111.9036307, 40.7889288]}, "properties": {"FID": 93, "Company": "TESORO CORP", "Name": "Tesoro West Coast", "Terminal_S": "Oil Refinery", "City": "SALT LAKE CITY", "State": "Utah", "Country": "US", "Zip": "84103", "Longitude": -111.903631, "Latitude": 40.788929, "Cty_Parish": ".", "Storage": ".", "SendOut": "57500", "Markets": "Rocky Mountain", "Availabili": ".", "Type": ".", "Imp_Exp": ".", "Status": ".", "FERC_MARAD": ".", "Address": "474 West 900 North"}}, {"type": "Feature", "id": 94, "geometry": {"type": "Point", "coordinates": [-98.6070958999999, 29.6185067]}, "properties": {"FID": 94, "Company": "NUSTAR ENERGY LP", "Name": "NUSTAR REFINING LLC", "Terminal_S": "Oil Refinery", "City": "SAN ANTONIO", "State": "Texas", "Country": "US", "Zip": "78257", "Longitude": -98.607096, "Latitude": 29.618507, "Cty_Parish": ".", "Storage": ".", "SendOut": "14021", "Markets": "Texas Inland", "Availabili": ".", "Type": ".", "Imp_Exp": ".", "Status": ".", "FERC_MARAD": ".", "Address": "19003 West Interstate 10"}}, {"type": "Feature", "id": 95, "geometry": {"type": "Point", "coordinates": [-89.0128307999999, 31.8135292]}, "properties": {"FID": 95, "Company": "HUNT CONSLD INC", "Name": "HUNT SOUTHLAND REFINING CO", "Terminal_S": "Oil Refinery", "City": "SANDERSVILLE", "State": "Mississippi", "Country": "US", "Zip": "39439", "Longitude": -89.012831, "Latitude": 31.813529, "Cty_Parish": ".", "Storage": ".", "SendOut": "11000", "Markets": "North Louisiana-Arkansas", "Availabili": ".", "Type": ".", "Imp_Exp": ".", "Status": ".", "FERC_MARAD": ".", "Address": "177 Haney Road"}}, {"type": "Feature", "id": 96, "geometry": {"type": "Point", "coordinates": [-120.5120465, 34.9298861]}, "properties": {"FID": 96, "Company": "GREKA ENERGY", "Name": "SANTA MARIA REFINING COMPANY", "Terminal_S": "Oil Refinery", "City": "SANTA MARIA", "State": "California", "Country": "US", "Zip": "93458", "Longitude": -120.512047, "Latitude": 34.929886, "Cty_Parish": ".", "Storage": ".", "SendOut": "9500", "Markets": "West Coast", "Availabili": ".", "Type": ".", "Imp_Exp": ".", "Status": ".", "FERC_MARAD": ".", "Address": "1660 Sinton Road"}}, {"type": "Feature", "id": 97, "geometry": {"type": "Point", "coordinates": [-88.0810318999999, 30.800661]}, "properties": {"FID": 97, "Company": "ROYAL DUTCH/SHELL GROUP", "Name": "SHELL CHEMICAL LP", "Terminal_S": "Oil Refinery", "City": "SARALAND", "State": "Alabama", "Country": "US", "Zip": "36571", "Longitude": -88.081032, "Latitude": 30.800661, "Cty_Parish": ".", "Storage": ".", "SendOut": "80000", "Markets": "Louisiana Gulf Coast", "Availabili": ".", "Type": ".", "Imp_Exp": ".", "Status": ".", "FERC_MARAD": ".", "Address": "400 Industrial Parkway"}}, {"type": "Feature", "id": 98, "geometry": {"type": "Point", "coordinates": [-93.7929189999999, 32.467318]}, "properties": {"FID": 98, "Company": "CALUMET LUBRICANTS CO", "Name": "CALUMET SHREVEPORT LLC", "Terminal_S": "Oil Refinery", "City": "SHREVEPORT", "State": "Louisiana", "Country": "US", "Zip": "71109", "Longitude": -93.792919, "Latitude": 32.467318, "Cty_Parish": ".", "Storage": ".", "SendOut": "57000", "Markets": "North Louisiana-Arkansas", "Availabili": ".", "Type": ".", "Imp_Exp": ".", "Status": ".", "FERC_MARAD": ".", "Address": "3333 Midway Street"}}, {"type": "Feature", "id": 99, "geometry": {"type": "Point", "coordinates": [-107.1181262, 41.7839199]}, "properties": {"FID": 99, "Company": "SINCLAIR OIL CORP", "Name": "SINCLAIR WYOMING REFINING CO", "Terminal_S": "Oil Refinery", "City": "SINCLAIR", "State": "Wyoming", "Country": "US", "Zip": "82334", "Longitude": -107.118126, "Latitude": 41.78392, "Cty_Parish": ".", "Storage": ".", "SendOut": "74000", "Markets": "Rocky Mountain", "Availabili": ".", "Type": ".", "Imp_Exp": ".", "Status": ".", "FERC_MARAD": ".", "Address": "100 Washington Avenue"}}, {"type": "Feature", "id": 100, "geometry": {"type": "Point", "coordinates": [-92.7198492, 33.3648781]}, "properties": {"FID": 100, "Company": "MARTIN RESOURCE MANAGEMENT GRP", "Name": "MARTIN MIDSTREAM PARTNERS LP", "Terminal_S": "Oil Refinery", "City": "SMACKOVER", "State": "Arkansas", "Country": "US", "Zip": "71762", "Longitude": -92.719849, "Latitude": 33.364878, "Cty_Parish": ".", "Storage": ".", "SendOut": "7500", "Markets": "North Louisiana-Arkansas", "Availabili": ".", "Type": ".", "Imp_Exp": ".", "Status": ".", "FERC_MARAD": ".", "Address": "484 East 6th Street"}}, {"type": "Feature", "id": 101, "geometry": {"type": "Point", "coordinates": [-118.165238999999, 33.945304]}, "properties": {"FID": 101, "Company": "WORLD OIL CO", "Name": "LUNDAY THAGARD CO", "Terminal_S": "Oil Refinery", "City": "SOUTH GATE", "State": "California", "Country": "US", "Zip": "90280", "Longitude": -118.165239, "Latitude": 33.945304, "Cty_Parish": ".", "Storage": ".", "SendOut": "8500", "Markets": "West Coast", "Availabili": ".", "Type": ".", "Imp_Exp": ".", "Status": ".", "FERC_MARAD": ".", "Address": "9302 Garfield Avenue"}}, {"type": "Feature", "id": 102, "geometry": {"type": "Point", "coordinates": [-101.8247104, 36.1566756]}, "properties": {"FID": 102, "Company": "VALERO ENERGY CORP", "Name": "VALERO ENERGY CORPORATION", "Terminal_S": "Oil Refinery", "City": "SUNRAY", "State": "Texas", "Country": "US", "Zip": "79086", "Longitude": -101.82471, "Latitude": 36.156676, "Cty_Parish": ".", "Storage": ".", "SendOut": "156000", "Markets": "Texas Inland", "Availabili": ".", "Type": ".", "Imp_Exp": ".", "Status": ".", "FERC_MARAD": ".", "Address": "6701 FM 119"}}, {"type": "Feature", "id": 103, "geometry": {"type": "Point", "coordinates": [-92.0769773, 46.7057634]}, "properties": {"FID": 103, "Company": "CALUMET LUBRICANTS CO", "Name": "CALUMET LUBRICANTS CO LP", "Terminal_S": "Oil Refinery", "City": "SUPERIOR", "State": "Wisconsin", "Country": "US", "Zip": "54880", "Longitude": -92.076977, "Latitude": 46.705763, "Cty_Parish": ".", "Storage": ".", "SendOut": "38000", "Markets": "Minnesota-Wisconsin-North and South Dakota", "Availabili": ".", "Type": ".", "Imp_Exp": ".", "Status": ".", "FERC_MARAD": ".", "Address": "4210 Hill Avenue"}}, {"type": "Feature", "id": 104, "geometry": {"type": "Point", "coordinates": [-95.7610644, 29.0750476]}, "properties": {"FID": 104, "Company": "CONOCOPHILLIPS", "Name": "CONOCOPHILLIPS COMPANY", "Terminal_S": "Oil Refinery", "City": "SWEENY", "State": "Texas", "Country": "US", "Zip": "77480", "Longitude": -95.761064, "Latitude": 29.075048, "Cty_Parish": ".", "Storage": ".", "SendOut": "247000", "Markets": "Texas Gulf Coast", "Availabili": ".", "Type": ".", "Imp_Exp": ".", "Status": ".", "FERC_MARAD": ".", "Address": "County Road 514"}}, {"type": "Feature", "id": 105, "geometry": {"type": "Point", "coordinates": [-122.388459, 47.256876]}, "properties": {"FID": 105, "Company": "COMPAGNIE NATIONALE A  PORTEFEUILLE", "Name": "US OIL & REFINING CO", "Terminal_S": "Oil Refinery", "City": "TACOMA", "State": "Washington", "Country": "US", "Zip": "98421", "Longitude": -122.388459, "Latitude": 47.256876, "Cty_Parish": ".", "Storage": ".", "SendOut": "40700", "Markets": "West Coast", "Availabili": ".", "Type": ".", "Imp_Exp": ".", "Status": ".", "FERC_MARAD": ".", "Address": "3001 Marshall Avenue"}}, {"type": "Feature", "id": 106, "geometry": {"type": "Point", "coordinates": [-94.9349406999999, 29.3839148]}, "properties": {"FID": 106, "Company": "BP PLC", "Name": "BP PRODUCTS NORTH AMERICA INC", "Terminal_S": "Oil Refinery", "City": "TEXAS CITY", "State": "Texas", "Country": "US", "Zip": "77590", "Longitude": -94.934941, "Latitude": 29.383915, "Cty_Parish": ".", "Storage": ".", "SendOut": "400780", "Markets": "Texas Gulf Coast", "Availabili": ".", "Type": ".", "Imp_Exp": ".", "Status": ".", "FERC_MARAD": ".", "Address": "2800 FM 519 East"}}, {"type": "Feature", "id": 107, "geometry": {"type": "Point", "coordinates": [-94.9093183999999, 29.3792262]}, "properties": {"FID": 107, "Company": "MARATHON PETROLEUM CORP", "Name": "MARATHON PETROLEUM CO LLC", "Terminal_S": "Oil Refinery", "City": "TEXAS CITY", "State": "Texas", "Country": "US", "Zip": "77590", "Longitude": -94.909318, "Latitude": 29.379226, "Cty_Parish": ".", "Storage": ".", "SendOut": "80000", "Markets": "Texas Gulf Coast", "Availabili": ".", "Type": ".", "Imp_Exp": ".", "Status": ".", "FERC_MARAD": ".", "Address": "502 10th Street South"}}, {"type": "Feature", "id": 108, "geometry": {"type": "Point", "coordinates": [-94.9026814, 29.3973154]}, "properties": {"FID": 108, "Company": "VALERO ENERGY CORP", "Name": "VALERO REFINING CO TEXAS LP", "Terminal_S": "Oil Refinery", "City": "TEXAS CITY", "State": "Texas", "Country": "US", "Zip": "77590", "Longitude": -94.902681, "Latitude": 29.397315, "Cty_Parish": ".", "Storage": ".", "SendOut": "225000", "Markets": "Texas Gulf Coast", "Availabili": ".", "Type": ".", "Imp_Exp": ".", "Status": ".", "FERC_MARAD": ".", "Address": "1301 Texas 197 Loop"}}, {"type": "Feature", "id": 109, "geometry": {"type": "Point", "coordinates": [-98.1856561, 28.4589878]}, "properties": {"FID": 109, "Company": "VALERO ENERGY CORP", "Name": "VALERO ENERGY CORPORATION", "Terminal_S": "Oil Refinery", "City": "THREE RIVERS", "State": "Texas", "Country": "US", "Zip": "78071", "Longitude": -98.185656, "Latitude": 28.458988, "Cty_Parish": ".", "Storage": ".", "SendOut": "93000", "Markets": "Texas Inland", "Availabili": ".", "Type": ".", "Imp_Exp": ".", "Status": ".", "FERC_MARAD": ".", "Address": "301 Le Roy Street"}}, {"type": "Feature", "id": 110, "geometry": {"type": "Point", "coordinates": [-83.457427, 41.6728477]}, "properties": {"FID": 110, "Company": "BP HUSKY REFINING LLC", "Name": "BP-HUSKY REFINING LLC", "Terminal_S": "Oil Refinery", "City": "TOLEDO", "State": "Ohio", "Country": "US", "Zip": "43616", "Longitude": -83.457427, "Latitude": 41.672848, "Cty_Parish": ".", "Storage": ".", "SendOut": "135000", "Markets": "Indiana-Illinois-Kentucky", "Availabili": ".", "Type": ".", "Imp_Exp": ".", "Status": ".", "FERC_MARAD": ".", "Address": "4001 Cedar Point Road"}}, {"type": "Feature", "id": 111, "geometry": {"type": "Point", "coordinates": [-83.504856, 41.6287523]}, "properties": {"FID": 111, "Company": "PBF ENERGY CO LLC", "Name": "TOLEDO REFINING CO LLC", "Terminal_S": "Oil Refinery", "City": "TOLEDO", "State": "Ohio", "Country": "US", "Zip": "43616", "Longitude": -83.504856, "Latitude": 41.628752, "Cty_Parish": ".", "Storage": ".", "SendOut": "160000", "Markets": "Indiana-Illinois-Kentucky", "Availabili": ".", "Type": ".", "Imp_Exp": ".", "Status": ".", "FERC_MARAD": ".", "Address": "1819 Woodville Road"}}, {"type": "Feature", "id": 112, "geometry": {"type": "Point", "coordinates": [-118.318767799999, 33.8581819]}, "properties": {"FID": 112, "Company": "EXXON MOBIL CORP", "Name": "EXXONMOBIL REFINING & SUPPLY CO", "Terminal_S": "Oil Refinery", "City": "TORRANCE", "State": "California", "Country": "US", "Zip": "90504", "Longitude": -118.318768, "Latitude": 33.858182, "Cty_Parish": ".", "Storage": ".", "SendOut": "149500", "Markets": "West Coast", "Availabili": ".", "Type": ".", "Imp_Exp": ".", "Status": ".", "FERC_MARAD": ".", "Address": "3700 West 190th Street"}}, {"type": "Feature", "id": 113, "geometry": {"type": "Point", "coordinates": [-96.0115089999999, 36.1376812]}, "properties": {"FID": 113, "Company": "HOLLYFRONTIER CORP", "Name": "HOLLY REFINING & MARKETING CO", "Terminal_S": "Oil Refinery", "City": "TULSA", "State": "Oklahoma", "Country": "US", "Zip": "74107", "Longitude": -96.011509, "Latitude": 36.137681, "Cty_Parish": ".", "Storage": ".", "SendOut": "70300", "Markets": "Oklahoma-Kansas-Missouri", "Availabili": ".", "Type": ".", "Imp_Exp": ".", "Status": ".", "FERC_MARAD": ".", "Address": "1700 South Union Avenue"}}, {"type": "Feature", "id": 114, "geometry": {"type": "Point", "coordinates": [-87.609321, 33.200524]}, "properties": {"FID": 114, "Company": "HUNT CONSLD INC", "Name": "HUNT REFINING CO", "Terminal_S": "Oil Refinery", "City": "TUSCALOOSA", "State": "Alabama", "Country": "US", "Zip": "35401", "Longitude": -87.609321, "Latitude": 33.200524, "Cty_Parish": ".", "Storage": ".", "SendOut": "36000", "Markets": "North Louisiana-Arkansas", "Availabili": ".", "Type": ".", "Imp_Exp": ".", "Status": ".", "FERC_MARAD": ".", "Address": "1855 Fairlawn Road"}}, {"type": "Feature", "id": 115, "geometry": {"type": "Point", "coordinates": [-95.2803210999999, 32.3546202]}, "properties": {"FID": 115, "Company": "DELEK GROUP LTD", "Name": "DELEK REFINING LTD", "Terminal_S": "Oil Refinery", "City": "TYLER", "State": "Texas", "Country": "US", "Zip": "75702", "Longitude": -95.280321, "Latitude": 32.35462, "Cty_Parish": ".", "Storage": ".", "SendOut": "60000", "Markets": "Texas Inland", "Availabili": ".", "Type": ".", "Imp_Exp": ".", "Status": ".", "FERC_MARAD": ".", "Address": "425 McMurrey Drive"}}, {"type": "Feature", "id": 116, "geometry": {"type": "Point", "coordinates": [-146.2764421, 61.0858609]}, "properties": {"FID": 116, "Company": "ARCTIC SLOPE REGIONAL CORP", "Name": "PETRO STAR INC", "Terminal_S": "Oil Refinery", "City": "VALDEZ", "State": "Alaska", "Country": "US", "Zip": "99686", "Longitude": -146.276442, "Latitude": 61.085861, "Cty_Parish": ".", "Storage": ".", "SendOut": "55000", "Markets": "West Coast", "Availabili": ".", "Type": ".", "Imp_Exp": ".", "Status": ".", "FERC_MARAD": ".", "Address": "2.5 Dayville Road"}}, {"type": "Feature", "id": 117, "geometry": {"type": "Point", "coordinates": [-90.8992055, 32.3900905]}, "properties": {"FID": 117, "Company": "ERGON INC", "Name": "ERGON REFINING INC", "Terminal_S": "Oil Refinery", "City": "VICKSBURG", "State": "Mississippi", "Country": "US", "Zip": "39183", "Longitude": -90.899205, "Latitude": 32.39009, "Cty_Parish": ".", "Storage": ".", "SendOut": "23000", "Markets": "North Louisiana-Arkansas", "Availabili": ".", "Type": ".", "Imp_Exp": ".", "Status": ".", "FERC_MARAD": ".", "Address": "2125 Haining Road"}}, {"type": "Feature", "id": 118, "geometry": {"type": "Point", "coordinates": [-79.1244595, 41.8296500999999]}, "properties": {"FID": 118, "Company": "UNITED REFINING INC", "Name": "UNITED REFINING CO", "Terminal_S": "Oil Refinery", "City": "WARREN", "State": "Pennsylvania", "Country": "US", "Zip": "16365", "Longitude": -79.12446, "Latitude": 41.82965, "Cty_Parish": ".", "Storage": ".", "SendOut": "65000", "Markets": "Appalachian No. 1", "Availabili": ".", "Type": ".", "Imp_Exp": ".", "Status": ".", "FERC_MARAD": ".", "Address": "15 Bradley Street"}}, {"type": "Feature", "id": 119, "geometry": {"type": "Point", "coordinates": [-93.2836846999999, 30.2459375]}, "properties": {"FID": 119, "Company": "CONOCOPHILLIPS", "Name": "CONOCOPHILLIPS COMPANY", "Terminal_S": "Oil Refinery", "City": "WESTLAKE", "State": "Louisiana", "Country": "US", "Zip": "70669", "Longitude": -93.283685, "Latitude": 30.245938, "Cty_Parish": ".", "Storage": ".", "SendOut": "239400", "Markets": "Louisiana Gulf Coast", "Availabili": ".", "Type": ".", "Imp_Exp": ".", "Status": ".", "FERC_MARAD": ".", "Address": "2200 Old Spanish Trail"}}, {"type": "Feature", "id": 120, "geometry": {"type": "Point", "coordinates": [-87.483557, 41.662594]}, "properties": {"FID": 120, "Company": "BP PLC", "Name": "BP PRODUCTS NORTH AMERICA INC", "Terminal_S": "Oil Refinery", "City": "WHITING", "State": "Indiana", "Country": "US", "Zip": "46394", "Longitude": -87.483557, "Latitude": 41.662594, "Cty_Parish": ".", "Storage": ".", "SendOut": "337000", "Markets": "Indiana-Illinois-Kentucky", "Availabili": ".", "Type": ".", "Imp_Exp": ".", "Status": ".", "FERC_MARAD": ".", "Address": "2815 Indianapolis Boulevard"}}, {"type": "Feature", "id": 121, "geometry": {"type": "Point", "coordinates": [-118.243606, 33.8040019]}, "properties": {"FID": 121, "Company": "CONOCOPHILLIPS", "Name": "CONOCOPHILLIPS COMPANY", "Terminal_S": "Oil Refinery", "City": "WILMINGTON", "State": "California", "Country": "US", "Zip": "90745", "Longitude": -118.243606, "Latitude": 33.804002, "Cty_Parish": ".", "Storage": ".", "SendOut": "139000", "Markets": "West Coast", "Availabili": ".", "Type": ".", "Imp_Exp": ".", "Status": ".", "FERC_MARAD": ".", "Address": "1520 East Sepulveda Boulevard"}}, {"type": "Feature", "id": 122, "geometry": {"type": "Point", "coordinates": [-118.2364746, 33.7915311]}, "properties": {"FID": 122, "Company": "TESORO CORP", "Name": "TESORO REFINING & MARKETING CO", "Terminal_S": "Oil Refinery", "City": "WILMINGTON", "State": "California", "Country": "US", "Zip": "90744", "Longitude": -118.236475, "Latitude": 33.791531, "Cty_Parish": ".", "Storage": ".", "SendOut": "103800", "Markets": "West Coast", "Availabili": ".", "Type": ".", "Imp_Exp": ".", "Status": ".", "FERC_MARAD": ".", "Address": "2101 East Pacific Coast Highway"}}, {"type": "Feature", "id": 123, "geometry": {"type": "Point", "coordinates": [-118.237070799999, 33.7813231]}, "properties": {"FID": 123, "Company": "VALERO ENERGY CORP", "Name": "VALERO REFINING CO CALIFORNIA", "Terminal_S": "Oil Refinery", "City": "WILMINGTON REFINERY", "State": "California", "Country": "US", "Zip": "90744", "Longitude": -118.237071, "Latitude": 33.781323, "Cty_Parish": ".", "Storage": ".", "SendOut": "78000", "Markets": "West Coast", "Availabili": ".", "Type": ".", "Imp_Exp": ".", "Status": ".", "FERC_MARAD": ".", "Address": "2402 East Anaheim Street"}}, {"type": "Feature", "id": 124, "geometry": {"type": "Point", "coordinates": [-90.0790101, 38.8427900999999]}, "properties": {"FID": 124, "Company": "WRB REFINING LP", "Name": "WRB REFINING LP", "Terminal_S": "Oil Refinery", "City": "WOOD RIVER", "State": "Illinois", "Country": "US", "Zip": "62097", "Longitude": -90.07901, "Latitude": 38.84279, "Cty_Parish": ".", "Storage": ".", "SendOut": "306000", "Markets": "Indiana-Illinois-Kentucky", "Availabili": ".", "Type": ".", "Imp_Exp": ".", "Status": ".", "FERC_MARAD": ".", "Address": "900 South Central Avenue"}}, {"type": "Feature", "id": 125, "geometry": {"type": "Point", "coordinates": [-111.908271, 40.883571]}, "properties": {"FID": 125, "Company": "HOLLYFRONTIER CORP", "Name": "HOLLY REFINING & MARKETING CO", "Terminal_S": "Oil Refinery", "City": "WOODS CROSS", "State": "Utah", "Country": "US", "Zip": "84087", "Longitude": -111.908271, "Latitude": 40.883571, "Cty_Parish": ".", "Storage": ".", "SendOut": "25050", "Markets": "Rocky Mountain", "Availabili": ".", "Type": ".", "Imp_Exp": ".", "Status": ".", "FERC_MARAD": ".", "Address": "985 West 500 South"}}, {"type": "Feature", "id": 126, "geometry": {"type": "Point", "coordinates": [-111.910257, 40.866428]}, "properties": {"FID": 126, "Company": "SILVER EAGLE REFINING INC", "Name": "Silver Eagle Refining", "Terminal_S": "Oil Refinery", "City": "WOODS CROSS", "State": "Utah", "Country": "US", "Zip": "84087", "Longitude": -111.910257, "Latitude": 40.866428, "Cty_Parish": ".", "Storage": ".", "SendOut": "10250", "Markets": "Rocky Mountain", "Availabili": ".", "Type": ".", "Imp_Exp": ".", "Status": ".", "FERC_MARAD": ".", "Address": "2355 South 1100 West"}}, {"type": "Feature", "id": 127, "geometry": {"type": "Point", "coordinates": [-97.1704942999999, 34.6502284]}, "properties": {"FID": 127, "Company": "CVR ENERGY", "Name": "WYNNEWOOD REFINING CO", "Terminal_S": "Oil Refinery", "City": "WYNNEWOOD", "State": "Oklahoma", "Country": "US", "Zip": "73098", "Longitude": -97.170494, "Latitude": 34.650228, "Cty_Parish": ".", "Storage": ".", "SendOut": "70000", "Markets": "Oklahoma-Kansas-Missouri", "Availabili": ".", "Type": ".", "Imp_Exp": ".", "Status": ".", "FERC_MARAD": ".", "Address": "906 South Powell Avenue"}}]}